aileron,elevator,rudder,flaps,slats,speedbrake,throttle,throttle,engine-pump,engine-pump,electric-pump,electric-pump,external-power,APU-generator,latitude-deg,longitude-deg,altitude-ft,roll-deg,pitch-deg,heading-deg,side-slip-deg,airspeed-kt,glideslope,vertical-speed-fps,airspeed-indicator_indicated-speed-kt,altimeter_indicated-altitude-ft,altimeter_pressure-alt-ft,attitude-indicator_indicated-pitch-deg,attitude-indicator_indicated-roll-deg,attitude-indicator_internal-pitch-deg,attitude-indicator_internal-roll-deg,encoder_indicated-altitude-ft,encoder_pressure-alt-ft,gps_indicated-altitude-ft,gps_indicated-ground-speed-kt,gps_indicated-vertical-speed,indicated-heading-deg,magnetic-compass_indicated-heading-deg,slip-skid-ball_indicated-slip-skid,turn-indicator_indicated-turn-rate,vertical-speed-indicator_indicated-speed-fpm,engine_rpm

0.000000,0.000000,0.000000,0.000000,0.000000,0.000000,0.000000,0.000000,0,0,0,0,0,0,63.9850442067,-22.5924836484,-9999.000000,0.000000,0.424000,270.021362,0.000000,0.000000,0.000000,0.000000,0.000000,0.000000,0.000000,0.000000,0.000000,0.000000,0.000000,0.000000,0.000000,0.000000,0.000000,0.000000,0.000000,0.000000,0.000000,0.000000,0.000000,0.000000

0.000000,0.000000,0.000000,0.000000,0.000000,0.000000,0.000000,0.000000,0,0,0,0,0,0,63.9850442067,-22.5924836484,-9999.000000,0.000000,0.424000,270.021362,0.000000,0.000000,0.000000,0.000000,0.000000,389.088776,1.193444,12.000000,40.000000,0.000000,0.000000,0.000000,0.000000,0.000000,0.000000,0.000000,283.232513,0.000000,0.000000,0.000000,0.000000,0.000000

0.000000,0.000000,0.000000,0.000000,0.000000,0.000000,0.000000,0.000000,0,0,0,0,0,0,63.9918353378,-22.6054255528,-9999.000000,0.000000,0.424000,180.018387,0.000000,0.000000,0.000000,0.000000,0.000000,389.088776,1.193444,12.000000,40.000000,0.000000,0.000000,0.000000,0.000000,0.000000,0.000000,0.000000,283.232513,0.000000,0.000000,0.000000,0.000000,0.000000

0.000000,0.000000,0.000000,0.000000,0.000000,0.000000,0.000000,0.000000,0,0,0,0,0,0,63.9918353378,-22.6054255528,-9999.000000,0.000000,0.424000,180.018387,0.000000,0.000000,0.000000,0.000000,0.000000,389.088776,1.193444,12.000000,40.000000,0.000000,0.000000,0.000000,0.000000,0.000000,0.000000,0.000000,283.232513,0.000000,0.000000,0.000000,0.000000,0.000000

0.000000,0.000000,0.000000,0.000000,0.000000,0.000000,0.000000,0.000000,0,0,0,0,0,0,63.9918353378,-22.6054255528,-9999.000000,0.000000,0.424000,180.018387,0.000000,0.000000,0.000000,0.000000,0.000000,389.088776,1.193444,12.000000,40.000000,0.000000,0.000000,0.000000,0.000000,0.000000,0.000000,0.000000,283.232513,0.000000,0.000000,0.000000,0.000000,0.000000

0.000000,0.000000,0.000000,0.000000,0.000000,0.000000,0.000000,0.000000,0,0,0,0,0,0,63.9918353378,-22.6054255528,-9999.000000,0.000000,0.424000,180.018387,0.000000,0.000000,0.000000,0.000000,0.000000,389.088776,1.193444,12.000000,40.000000,0.000000,0.000000,0.000000,0.000000,0.000000,0.000000,0.000000,283.232513,0.000000,0.000000,0.000000,0.000000,0.000000

0.000000,0.000000,0.000000,0.000000,0.000000,0.000000,0.000000,0.000000,0,0,0,0,0,0,63.9918353378,-22.6054255528,-9999.000000,0.000000,0.424000,180.018387,0.000000,0.000000,0.000000,0.000000,0.000000,389.088776,1.193444,12.000000,40.000000,0.000000,0.000000,0.000000,0.000000,0.000000,0.000000,0.000000,283.232513,0.000000,0.000000,0.000000,0.000000,0.000000

0.000000,0.000000,0.000000,0.000000,0.000000,0.000000,0.000000,0.000000,0,0,0,0,0,0,63.9918353378,-22.6054255528,-9999.000000,0.000000,0.424000,180.018387,0.000000,0.000000,0.000000,0.000000,0.000000,389.088776,1.193444,12.000000,40.000000,0.000000,0.000000,0.000000,0.000000,0.000000,0.000000,0.000000,283.232513,0.000000,0.000000,0.000000,0.000000,0.000000

0.000000,0.000000,0.000000,0.000000,0.000000,0.000000,0.000000,0.000000,0,0,0,0,0,0,63.9918353378,-22.6054255528,-9999.000000,0.000000,0.424000,180.018387,0.000000,0.000000,0.000000,0.000000,0.000000,389.088776,1.193444,12.000000,40.000000,0.000000,0.000000,0.000000,0.000000,0.000000,0.000000,0.000000,283.232513,0.000000,0.000000,0.000000,0.000000,0.000000

0.000000,0.000000,0.000000,0.000000,0.000000,0.000000,0.000000,0.000000,0,0,0,0,0,0,63.9918353378,-22.6054255528,-9999.000000,0.000000,0.424000,180.018387,0.000000,0.000000,0.000000,0.000000,0.000000,389.088776,1.193444,12.000000,40.000000,0.000000,0.000000,0.000000,0.000000,0.000000,0.000000,0.000000,283.232513,0.000000,0.000000,0.000000,0.000000,0.000000

0.000000,0.000000,0.000000,0.000000,0.000000,0.000000,0.000000,0.000000,0,0,0,0,0,0,63.9918353378,-22.6054255528,-9999.000000,0.000000,0.424000,180.018387,0.000000,0.000000,0.000000,0.000000,0.000000,389.088776,1.193444,12.000000,40.000000,0.000000,0.000000,0.000000,0.000000,0.000000,0.000000,0.000000,283.232513,0.000000,0.000000,0.000000,0.000000,0.000000

0.000000,0.000000,0.000000,0.000000,0.000000,0.000000,0.000000,0.000000,0,0,0,0,0,0,63.9918353378,-22.6054255528,-9999.000000,0.000000,0.424000,180.018387,0.000000,0.000000,0.000000,0.000000,0.000000,389.088776,1.193444,12.000000,40.000000,0.000000,0.000000,0.000000,0.000000,0.000000,0.000000,0.000000,283.232513,0.000000,0.000000,0.000000,0.000000,0.000000

0.000000,0.000000,0.000000,0.000000,0.000000,0.000000,0.000000,0.000000,0,0,0,0,0,0,63.9918353378,-22.6054255528,-9999.000000,0.000000,0.424000,180.018387,0.000000,0.000000,0.000000,0.000000,0.000000,389.088776,1.193444,12.000000,40.000000,0.000000,0.000000,0.000000,0.000000,0.000000,0.000000,0.000000,283.232513,0.000000,0.000000,0.000000,0.000000,0.000000

0.000000,0.000000,0.000000,0.000000,0.000000,0.000000,0.000000,0.000000,0,0,0,0,0,0,63.9918353378,-22.6054255528,-9999.000000,0.000000,0.424000,180.018387,0.000000,0.000000,0.000000,0.000000,0.000000,389.088776,1.193444,12.000000,40.000000,0.000000,0.000000,0.000000,0.000000,0.000000,0.000000,0.000000,283.232513,0.000000,0.000000,0.000000,0.000000,0.000000

0.000000,0.000000,0.000000,0.000000,0.000000,0.000000,0.000000,0.000000,0,0,0,0,0,0,63.9918353378,-22.6054255528,-9999.000000,0.000000,0.424000,180.018387,0.000000,0.000000,0.000000,0.000000,0.000000,389.088776,1.193444,12.000000,40.000000,0.000000,0.000000,0.000000,0.000000,0.000000,0.000000,0.000000,283.232513,0.000000,0.000000,0.000000,0.000000,0.000000

0.000000,0.000000,0.000000,0.000000,0.000000,0.000000,0.000000,0.000000,0,0,0,0,0,0,63.9918353378,-22.6054255528,-9999.000000,0.000000,0.424000,180.018387,0.000000,0.000000,0.000000,0.000000,0.000000,389.088776,1.193444,12.000000,40.000000,0.000000,0.000000,0.000000,0.000000,0.000000,0.000000,0.000000,283.232513,0.000000,0.000000,0.000000,0.000000,0.000000

0.000000,0.000000,0.000000,0.000000,0.000000,0.000000,0.000000,0.000000,0,0,0,0,0,0,63.9918353378,-22.6054255528,-9999.000000,0.000000,0.424000,180.018387,0.000000,0.000000,0.000000,0.000000,0.000000,389.088776,1.193444,12.000000,40.000000,0.000000,0.000000,0.000000,0.000000,0.000000,0.000000,0.000000,283.232513,0.000000,0.000000,0.000000,0.000000,0.000000

0.000000,0.000000,0.000000,0.000000,0.000000,0.000000,0.000000,0.000000,0,0,0,0,0,0,63.9918353378,-22.6054255528,-9999.000000,0.000000,0.424000,180.018387,0.000000,0.000000,0.000000,0.000000,0.000000,389.088776,1.193444,12.000000,40.000000,0.000000,0.000000,0.000000,0.000000,0.000000,0.000000,0.000000,283.232513,0.000000,0.000000,0.000000,0.000000,0.000000

0.000000,0.000000,0.000000,0.000000,0.000000,0.000000,0.000000,0.000000,0,0,0,0,0,0,63.9918353378,-22.6054255528,-9999.000000,0.000000,0.424000,180.018387,0.000000,0.000000,0.000000,0.000000,0.000000,389.088776,1.193444,12.000000,40.000000,0.000000,0.000000,0.000000,0.000000,0.000000,0.000000,0.000000,283.232513,0.000000,0.000000,0.000000,0.000000,0.000000

0.000000,0.000000,0.000000,0.000000,0.000000,0.000000,0.000000,0.000000,0,0,0,0,0,0,63.9918353378,-22.6054255528,-9999.000000,0.000000,0.424000,180.018387,0.000000,0.000000,0.000000,0.000000,0.000000,389.088776,1.193444,12.000000,40.000000,0.000000,0.000000,0.000000,0.000000,0.000000,0.000000,0.000000,283.232513,0.000000,0.000000,0.000000,0.000000,0.000000

0.000000,0.000000,0.000000,0.000000,0.000000,0.000000,0.000000,0.000000,0,0,0,0,0,0,63.9918353378,-22.6054255528,-9999.000000,0.000000,0.424000,180.018387,0.000000,0.000000,0.000000,0.000000,0.000000,389.088776,1.193444,12.000000,40.000000,0.000000,0.000000,0.000000,0.000000,0.000000,0.000000,0.000000,283.232513,0.000000,0.000000,0.000000,0.000000,0.000000

0.000000,0.000000,0.000000,0.000000,0.000000,0.000000,0.000000,0.000000,0,0,0,0,0,0,63.9918353378,-22.6054255528,-9999.000000,0.000000,0.424000,180.018387,0.000000,0.000000,0.000000,0.000000,0.000000,389.088776,1.193444,12.000000,40.000000,0.000000,0.000000,0.000000,0.000000,0.000000,0.000000,0.000000,283.232513,0.000000,0.000000,0.000000,0.000000,0.000000

0.000000,0.000000,0.000000,0.000000,0.000000,0.000000,0.000000,0.000000,0,0,0,0,0,0,63.9918353378,-22.6054255528,-9999.000000,0.000000,0.424000,180.018387,0.000000,0.000000,0.000000,0.000000,0.000000,389.088776,1.193444,12.000000,40.000000,0.000000,0.000000,0.000000,0.000000,0.000000,0.000000,0.000000,283.232513,0.000000,0.000000,0.000000,0.000000,0.000000

0.000000,0.000000,0.000000,0.000000,0.000000,0.000000,0.000000,0.000000,0,0,0,0,0,0,63.9918353378,-22.6054255528,-9999.000000,0.000000,0.424000,180.018387,0.000000,0.000000,0.000000,0.000000,0.000000,389.088776,1.193444,12.000000,40.000000,0.000000,0.000000,0.000000,0.000000,0.000000,0.000000,0.000000,283.232513,0.000000,0.000000,0.000000,0.000000,0.000000

0.000000,0.000000,0.000000,0.000000,0.000000,0.000000,0.000000,0.000000,0,0,0,0,0,0,63.9918353378,-22.6054255528,-9999.000000,0.000000,0.424000,180.018387,0.000000,0.000000,0.000000,0.000000,0.000000,389.088776,1.193444,12.000000,40.000000,0.000000,0.000000,0.000000,0.000000,0.000000,0.000000,0.000000,283.232513,0.000000,0.000000,0.000000,0.000000,0.000000

0.000000,0.000000,0.000000,0.000000,0.000000,0.000000,0.000000,0.000000,0,0,0,0,0,0,63.9918353378,-22.6054255528,-9999.000000,0.000000,0.424000,180.018387,0.000000,0.000000,0.000000,0.000000,0.000000,389.088776,1.193444,12.000000,40.000000,0.000000,0.000000,0.000000,0.000000,0.000000,0.000000,0.000000,283.232513,0.000000,0.000000,0.000000,0.000000,0.000000

0.000000,0.000000,0.000000,0.000000,0.000000,0.000000,0.000000,0.000000,0,0,0,0,0,0,63.9918353378,-22.6054255528,-9999.000000,0.000000,0.424000,180.018387,0.000000,0.000000,0.000000,0.000000,0.000000,389.088776,1.193444,12.000000,40.000000,0.000000,0.000000,0.000000,0.000000,0.000000,0.000000,0.000000,283.232513,0.000000,0.000000,0.000000,0.000000,0.000000

0.000000,0.000000,0.000000,0.000000,0.000000,0.000000,0.000000,0.000000,0,0,0,0,0,0,63.9918353378,-22.6054255528,-9999.000000,0.000000,0.424000,180.018387,0.000000,0.000000,0.000000,0.000000,0.000000,389.088776,1.193444,12.000000,40.000000,0.000000,0.000000,0.000000,0.000000,0.000000,0.000000,0.000000,283.232513,0.000000,0.000000,0.000000,0.000000,0.000000

0.000000,0.000000,0.000000,0.000000,0.000000,0.000000,0.000000,0.000000,0,0,0,0,0,0,63.9918353378,-22.6054255528,-9999.000000,0.000000,0.424000,180.018387,0.000000,0.000000,0.000000,0.000000,0.000000,389.088776,1.193444,12.000000,40.000000,0.000000,0.000000,0.000000,0.000000,0.000000,0.000000,0.000000,283.232513,0.000000,0.000000,0.000000,0.000000,0.000000

0.000000,0.000000,0.000000,0.000000,0.000000,0.000000,0.000000,0.000000,0,0,0,0,0,0,63.9918353378,-22.6054255528,-9999.000000,0.000000,0.424000,180.018387,0.000000,0.000000,0.000000,0.000000,0.000000,389.088776,1.193444,12.000000,40.000000,0.000000,0.000000,0.000000,0.000000,0.000000,0.000000,0.000000,283.232513,0.000000,0.000000,0.000000,0.000000,0.000000

0.000000,0.000000,0.000000,0.000000,0.000000,0.000000,0.000000,0.000000,0,0,0,0,0,0,63.9918353378,-22.6054255528,-9999.000000,0.000000,0.424000,180.018387,0.000000,0.000000,0.000000,0.000000,0.000000,389.088776,1.193444,12.000000,40.000000,0.000000,0.000000,0.000000,0.000000,0.000000,0.000000,0.000000,283.232513,0.000000,0.000000,0.000000,0.000000,0.000000

0.000000,0.000000,0.000000,0.000000,0.000000,0.000000,0.000000,0.000000,0,0,0,0,0,0,63.9918353378,-22.6054255528,-9999.000000,0.000000,0.424000,180.018387,0.000000,0.000000,0.000000,0.000000,0.000000,389.088776,1.193444,12.000000,40.000000,0.000000,0.000000,0.000000,0.000000,0.000000,0.000000,0.000000,283.232513,0.000000,0.000000,0.000000,0.000000,0.000000

0.000000,0.000000,0.000000,0.000000,0.000000,0.000000,0.000000,0.000000,0,0,0,0,0,0,63.9918353378,-22.6054255528,-9999.000000,0.000000,0.424000,180.018387,0.000000,0.000000,0.000000,0.000000,0.000000,389.088776,1.193444,12.000000,40.000000,0.000000,0.000000,0.000000,0.000000,0.000000,0.000000,0.000000,283.232513,0.000000,0.000000,0.000000,0.000000,0.000000

0.000000,0.000000,0.000000,0.000000,0.000000,0.000000,0.000000,0.000000,0,0,0,0,0,0,63.9918353378,-22.6054255528,-9999.000000,0.000000,0.424000,180.018387,0.000000,0.000000,0.000000,0.000000,0.000000,389.088776,1.193444,12.000000,40.000000,0.000000,0.000000,0.000000,0.000000,0.000000,0.000000,0.000000,283.232513,0.000000,0.000000,0.000000,0.000000,0.000000

0.000000,0.000000,0.000000,0.000000,0.000000,0.000000,0.000000,0.000000,0,0,0,0,0,0,63.9918353378,-22.6054255528,-9999.000000,0.000000,0.424000,180.018387,0.000000,0.000000,0.000000,0.000000,0.000000,389.088776,1.193444,12.000000,40.000000,0.000000,0.000000,0.000000,0.000000,0.000000,0.000000,0.000000,283.232513,0.000000,0.000000,0.000000,0.000000,0.000000

0.000000,0.000000,0.000000,0.000000,0.000000,0.000000,0.000000,0.000000,0,0,0,0,0,0,63.9918353378,-22.6054255528,-9999.000000,0.000000,0.424000,180.018387,0.000000,0.000000,0.000000,0.000000,0.000000,389.088776,1.193444,12.000000,40.000000,0.000000,0.000000,0.000000,0.000000,0.000000,0.000000,0.000000,283.232513,0.000000,0.000000,0.000000,0.000000,0.000000

0.000000,0.000000,0.000000,0.000000,0.000000,0.000000,0.000000,0.000000,0,0,0,0,0,0,63.9918357222,-22.6054262456,146.215851,0.105229,5.245214,180.011627,0.000000,0.000000,0.000000,0.000000,0.000000,389.088776,1.193444,12.000000,40.000000,0.000000,0.000000,0.000000,0.000000,0.000000,0.000000,0.000000,283.232513,0.000000,0.000000,0.000000,0.000000,0.000000

0.000000,0.000000,0.000000,0.000000,0.000000,0.000000,0.000000,0.000000,0,0,0,0,0,0,63.9918357278,-22.6054262402,146.215744,0.093601,5.271746,180.010666,89.870567,3.014619,-0.046912,-0.000023,0.000000,538.442322,150.546951,12.000000,40.000000,0.000000,0.000000,150.000137,150.000000,146.215744,0.000052,-0.002013,283.232483,344.452362,-0.010979,-0.985256,3365.828857,0.000000

0.000000,0.000000,0.000000,0.000000,0.000000,0.000000,0.000000,0.000000,0,0,0,0,0,0,63.9918357216,-22.6054262415,146.216095,0.096270,5.242211,180.010864,83.896652,2.735632,0.124843,0.000040,0.000000,510.107330,122.211990,12.000000,40.000000,0.000000,0.000000,120.000145,120.000000,146.216095,0.000109,0.003019,283.232483,304.645813,-0.014634,-1.582221,1673.464111,0.000000

0.000000,0.000000,0.000000,0.000000,0.000000,0.000000,0.000000,0.000000,0,0,0,0,0,0,63.9918357216,-22.6054262428,146.216080,0.099081,5.242130,180.011093,76.419365,2.495195,-0.092921,-0.000003,0.000000,481.766022,93.870667,12.000000,40.000000,0.000000,0.000000,90.000145,90.000000,146.216080,0.000089,-0.000168,283.232483,252.085159,-0.016290,-1.943920,-159.086945,0.000000

0.000000,0.000000,0.000000,0.000000,0.000000,0.000000,0.000000,0.000000,0,0,0,0,0,0,63.9918357216,-22.6054262429,146.216064,0.099206,5.242162,180.011108,75.036453,2.459739,-0.145044,-0.000011,5.888528,478.639923,90.744583,12.000000,40.000000,0.000000,0.000000,90.000145,90.000000,146.216064,0.000086,-0.001040,283.232483,242.924805,-0.016432,-1.988471,-528.672424,0.000000

0.000000,0.000000,0.000000,0.000000,0.000000,0.000000,0.000000,0.000000,0,0,0,0,0,0,63.9918357216,-22.6054262429,146.216064,0.099333,5.242201,180.011124,74.116287,2.437478,-0.149621,-0.000017,6.882218,475.998291,88.102943,12.000000,40.000000,0.000000,0.000000,90.000145,90.000000,146.216064,0.000085,-0.001040,283.232483,236.981400,-0.016508,-2.015496,-689.688049,0.000000

0.000000,0.000000,0.000000,0.000000,0.000000,0.000000,0.000000,0.000000,0,0,0,0,0,0,63.9918357216,-22.6054262430,146.216064,0.099469,5.242248,180.011139,73.324562,2.419137,-0.142188,-0.000019,7.105715,473.557922,85.662575,12.000000,40.000000,0.000000,0.000000,90.000145,90.000000,146.216064,0.000083,-0.001577,283.232483,231.971024,-0.016583,-2.037246,-800.722778,0.000000

0.000000,0.000000,0.000000,0.000000,0.000000,0.000000,0.000000,0.000000,0,0,0,0,0,0,63.9918357216,-22.6054262431,146.216064,0.099641,5.242309,180.011139,72.447151,2.399661,-0.140313,-0.000021,7.205441,470.774719,82.879379,12.000000,40.000000,0.000000,0.000000,90.000145,90.000000,146.216064,0.000081,-0.001677,283.232483,226.534683,-0.016654,-2.059861,-902.215515,0.000000

0.000000,0.000000,0.000000,0.000000,0.000000,0.000000,0.000000,0.000000,0,0,0,0,0,0,63.9918357216,-22.6054262432,146.216064,0.099845,5.242386,180.011169,71.480576,2.379204,-0.142572,-0.000023,7.276629,467.701111,79.805763,12.000000,40.000000,0.000000,0.000000,80.000145,80.000000,146.216064,0.000080,-0.001543,283.232483,220.691513,-0.016723,-2.083114,-993.142639,0.000000

0.000000,0.000000,0.000000,0.000000,0.000000,0.000000,0.000000,0.000000,0,0,0,0,0,0,63.9918357217,-22.6054262433,146.216064,0.100025,5.242456,180.011185,70.649727,2.362428,-0.143096,-0.000024,7.323900,465.137482,77.242142,12.000000,40.000000,0.000000,0.000000,80.000145,80.000000,146.216064,0.000078,-0.001644,283.232483,215.793900,-0.016792,-2.101829,-1054.856567,0.000000

0.000000,0.000000,0.000000,0.000000,0.000000,0.000000,0.000000,0.000000,0,0,0,0,0,0,63.9918357217,-22.6054262433,146.216049,0.100227,5.242536,180.011200,69.729942,2.344701,-0.142835,-0.000024,7.330574,462.304291,74.408943,12.000000,40.000000,0.000000,0.000000,80.000145,80.000000,146.216049,0.000077,-0.001610,283.232483,210.508942,-0.016857,-2.121287,-1114.448120,0.000000

0.000000,0.000000,0.000000,0.000000,0.000000,0.000000,0.000000,0.000000,0,0,0,0,0,0,63.9918357217,-22.6054262434,146.216049,0.100398,5.242604,180.011215,68.952888,2.330395,-0.139962,-0.000024,7.313295,459.882965,71.987617,12.000000,40.000000,0.000000,0.000000,70.000145,70.000000,146.216049,0.000075,-0.001811,283.232483,206.157471,-0.016898,-2.136774,-1160.937744,0.000000

0.000000,0.000000,0.000000,0.000000,0.000000,0.000000,0.000000,0.000000,0,0,0,0,0,0,63.9918357217,-22.6054262435,146.216049,0.100619,5.242692,180.011230,67.928535,2.312445,-0.140036,-0.000024,7.302090,456.814453,68.919113,12.000000,40.000000,0.000000,0.000000,70.000145,70.000000,146.216049,0.000074,-0.001845,283.232483,200.581177,-0.016958,-2.155965,-1209.998535,0.000000

0.000000,0.000000,0.000000,0.000000,0.000000,0.000000,0.000000,0.000000,0,0,0,0,0,0,63.9918357217,-22.6054262436,146.216049,0.100838,5.242781,180.011246,66.888420,2.295245,-0.138458,-0.000023,7.206933,453.761444,65.866112,12.000000,40.000000,0.000000,0.000000,70.000145,70.000000,146.216049,0.000072,-0.001811,283.232483,195.106186,-0.017039,-2.174141,-1252.006470,0.000000

0.000000,0.000000,0.000000,0.000000,0.000000,0.000000,0.000000,0.000000,0,0,0,0,0,0,63.9918357217,-22.6054262437,146.216049,0.101052,5.242867,180.011261,65.832909,2.278812,-0.138692,-0.000022,7.328353,450.681854,62.786522,12.000000,40.000000,0.000000,0.000000,70.000145,70.000000,146.216049,0.000071,-0.001811,283.232483,189.743042,-0.017095,-2.191357,-1290.505371,0.000000

0.000000,0.000000,0.000000,0.000000,0.000000,0.000000,0.000000,0.000000,0,0,0,0,0,0,63.9918357218,-22.6054262438,146.216034,0.101197,5.242926,180.011276,65.093353,2.267894,-0.137667,-0.000022,7.314415,448.546539,60.651184,12.000000,40.000000,0.000000,0.000000,60.000141,60.000000,146.216034,0.000070,-0.001744,283.232483,186.100906,-0.017132,-2.202740,-1314.724121,0.000000

0.000000,0.000000,0.000000,0.000000,0.000000,0.000000,0.000000,0.000000,0,0,0,0,0,0,63.9918357218,-22.6054262439,146.216034,0.101387,5.243002,180.011292,64.096313,2.253929,-0.138419,-0.000021,7.304644,445.750153,57.854809,12.000000,40.000000,0.000000,0.000000,60.000141,60.000000,146.216034,0.000068,-0.001543,283.232483,181.341171,-0.017182,-2.217267,-1341.858643,0.000000

0.000000,0.000000,0.000000,0.000000,0.000000,0.000000,0.000000,0.000000,0,0,0,0,0,0,63.9918357218,-22.6054262440,146.216034,0.101572,5.243076,180.011307,63.087120,2.240654,-0.136591,-0.000021,7.314478,442.926575,55.031242,12.000000,40.000000,0.000000,0.000000,60.000141,60.000000,146.216034,0.000067,-0.001442,283.232483,176.698257,-0.017232,-2.231084,-1367.578613,0.000000

0.000000,0.000000,0.000000,0.000000,0.000000,0.000000,0.000000,0.000000,0,0,0,0,0,0,63.9918357218,-22.6054262441,146.216034,0.101752,5.243148,180.011322,62.066174,2.228083,-0.134457,-0.000020,7.323031,440.095947,52.200596,12.000000,40.000000,0.000000,0.000000,50.000141,50.000000,146.216034,0.000065,-0.001442,283.232483,172.179047,-0.017280,-2.244226,-1391.235229,0.000000

0.000000,0.000000,0.000000,0.000000,0.000000,0.000000,0.000000,0.000000,0,0,0,0,0,0,63.9918357218,-22.6054262442,146.216034,0.101928,5.243218,180.011337,61.033932,2.216226,-0.129553,-0.000018,7.277314,437.261749,49.366405,12.000000,40.000000,0.000000,0.000000,50.000141,50.000000,146.216034,0.000064,-0.001543,283.232483,167.790070,-0.017326,-2.256726,-1412.929932,0.000000

0.000000,0.000000,0.000000,0.000000,0.000000,0.000000,0.000000,0.000000,0,0,0,0,0,0,63.9918357218,-22.6054262442,146.216034,0.102098,5.243285,180.011353,59.990891,2.205096,-0.129202,-0.000018,7.344241,434.430878,46.535534,12.000000,40.000000,0.000000,0.000000,50.000141,50.000000,146.216034,0.000063,-0.001241,283.232483,163.537415,-0.017370,-2.268615,-1432.638672,0.000000

0.000000,0.000000,0.000000,0.000000,0.000000,0.000000,0.000000,0.000000,0,0,0,0,0,0,63.9918357218,-22.6054262443,146.216034,0.102263,5.243350,180.011368,58.937576,2.194704,-0.125658,-0.000017,7.418355,431.595123,43.699783,12.000000,40.000000,0.000000,0.000000,50.000141,50.000000,146.216034,0.000062,-0.001208,283.232483,159.426819,-0.017413,-2.279922,-1450.832153,0.000000

0.000000,0.000000,0.000000,0.000000,0.000000,0.000000,0.000000,0.000000,0,0,0,0,0,0,63.9918357219,-22.6054262444,146.216019,0.102423,5.243412,180.011383,57.874561,2.185060,-0.122035,-0.000016,7.439608,428.762634,40.867302,12.000000,40.000000,0.000000,0.000000,40.000141,40.000000,146.216019,0.000060,-0.001141,283.232483,155.463623,-0.017454,-2.290678,-1467.428711,0.000000

0.000000,0.000000,0.000000,0.000000,0.000000,0.000000,0.000000,0.000000,0,0,0,0,0,0,63.9918357219,-22.6054262445,146.216019,0.102578,5.243471,180.011398,56.802444,2.176174,-0.115771,-0.000014,7.379069,425.933472,38.038136,12.000000,40.000000,0.000000,0.000000,40.000141,40.000000,146.216019,0.000059,-0.001208,283.232483,151.652740,-0.017497,-2.300907,-1482.460083,0.000000

0.000000,0.000000,0.000000,0.000000,0.000000,0.000000,0.000000,0.000000,0,0,0,0,0,0,63.9918357219,-22.6054262445,146.216019,0.102728,5.243528,180.011414,55.721886,2.168056,-0.112935,-0.000014,7.456202,423.096130,35.200779,12.000000,40.000000,0.000000,0.000000,40.000141,40.000000,146.216019,0.000058,-0.001006,283.232483,147.998734,-0.017535,-2.310637,-1496.713989,0.000000

0.000000,0.000000,0.000000,0.000000,0.000000,0.000000,0.000000,0.000000,0,0,0,0,0,0,63.9918357219,-22.6054262446,146.216019,0.102886,5.243587,180.011429,54.542530,2.160138,-0.105630,-0.000012,7.475029,419.988037,32.092686,12.000000,40.000000,0.000000,0.000000,30.000143,30.000000,146.216019,0.000057,-0.001006,283.232483,144.222000,-0.017572,-2.320642,-1512.314941,0.000000

0.000000,0.000000,0.000000,0.000000,0.000000,0.000000,0.000000,0.000000,0,0,0,0,0,0,63.9918357219,-22.6054262447,146.216019,0.103015,5.243636,180.011429,53.538143,2.154157,-0.099953,-0.000011,7.406167,417.436066,29.540710,12.000000,40.000000,0.000000,0.000000,30.000143,30.000000,146.216019,0.000056,-0.001006,283.232483,141.177399,-0.017613,-2.328693,-1521.288818,0.000000

0.000000,0.000000,0.000000,0.000000,0.000000,0.000000,0.000000,0.000000,0,0,0,0,0,0,63.9918357219,-22.6054262447,146.216019,0.103151,5.243685,180.011444,52.436424,2.148392,-0.094718,-0.000010,7.479318,414.594513,26.699173,12.000000,40.000000,0.000000,0.000000,30.000143,30.000000,146.216019,0.000055,-0.000805,283.232483,138.017151,-0.017647,-2.337065,-1532.713623,0.000000

0.000000,0.000000,0.000000,0.000000,0.000000,0.000000,0.000000,0.000000,0,0,0,0,0,0,63.9918357219,-22.6054262448,146.216019,0.103283,5.243733,180.011459,51.329136,2.143425,-0.086262,-0.000009,7.417704,411.753906,23.858555,12.000000,40.000000,0.000000,0.000000,30.000143,30.000000,146.216019,0.000054,-0.000839,283.232483,135.027878,-0.017682,-2.345027,-1543.204346,0.000000

0.000000,0.000000,0.000000,0.000000,0.000000,0.000000,0.000000,0.000000,0,0,0,0,0,0,63.9918357219,-22.6054262449,146.216019,0.103410,5.243778,180.011459,50.217083,2.139262,-0.078305,-0.000008,7.420235,408.917145,21.021790,12.000000,40.000000,0.000000,0.000000,20.000143,20.000000,146.216019,0.000053,-0.000671,283.232483,132.212128,-0.017715,-2.352601,-1552.765747,0.000000

0.000000,0.000000,0.000000,0.000000,0.000000,0.000000,0.000000,0.000000,0,0,0,0,0,0,63.9918357219,-22.6054262449,146.216019,0.103543,5.243824,180.011475,49.007923,2.135666,-0.069120,-0.000007,7.504209,405.812897,17.917549,12.000000,40.000000,0.000000,0.000000,20.000143,20.000000,146.216019,0.000051,-0.000604,283.232483,129.360031,-0.017746,-2.360388,-1563.622803,0.000000

0.000000,0.000000,0.000000,0.000000,0.000000,0.000000,0.000000,0.000000,0,0,0,0,0,0,63.9918357220,-22.6054262450,146.216019,0.103651,5.243861,180.011490,47.981934,2.133367,-0.060339,-0.000006,7.429486,403.246246,15.350889,12.000000,40.000000,0.000000,0.000000,20.000143,20.000000,146.216019,0.000050,-0.000503,283.232483,127.109383,-0.017779,-2.366656,-1569.750122,0.000000

0.000000,0.000000,0.000000,0.000000,0.000000,0.000000,0.000000,0.000000,0,0,0,0,0,0,63.9918357220,-22.6054262450,146.216003,0.103766,5.243899,180.011490,46.860519,2.131641,-0.050384,-0.000005,7.502735,400.415314,12.519956,12.000000,40.000000,0.000000,0.000000,20.000143,20.000000,146.216003,0.000049,-0.000403,283.232483,124.825493,-0.017809,-2.373172,-1577.198730,0.000000

0.000000,0.000000,0.000000,0.000000,0.000000,0.000000,0.000000,0.000000,0,0,0,0,0,0,63.9918357220,-22.6054262451,146.216003,0.103894,5.243941,180.011505,45.550453,2.130661,-0.036710,-0.000003,7.455210,397.067383,9.172044,12.000000,40.000000,0.000000,0.000000,10.000142,10.000000,146.216003,0.000048,-0.000403,283.232483,122.388199,-0.017849,-2.380373,-1586.889282,0.000000

0.000000,0.000000,0.000000,0.000000,0.000000,0.000000,0.000000,0.000000,0,0,0,0,0,0,63.9918357220,-22.6054262451,146.216003,0.104000,5.243975,180.011520,44.427025,2.130709,-0.024394,-0.000002,7.495376,394.260345,6.365013,12.000000,40.000000,0.000000,0.000000,10.000142,10.000000,146.216003,0.000047,-0.000302,283.232483,120.494530,-0.017878,-2.386220,-1592.202271,0.000000

0.000000,0.000000,0.000000,0.000000,0.000000,0.000000,0.000000,0.000000,0,0,0,0,0,0,63.9918357220,-22.6054262452,146.216003,0.104102,5.244006,180.011520,43.304035,2.131575,-0.010568,-0.000001,7.519809,391.435333,3.540003,12.000000,40.000000,0.000000,0.000000,10.000142,10.000000,146.216003,0.000046,-0.000268,283.232483,118.781479,-0.017906,-2.391780,-1597.839478,0.000000

0.000000,0.000000,0.000000,0.000000,0.000000,0.000000,0.000000,0.000000,0,0,0,0,0,0,63.9918357220,-22.6054262452,146.216003,0.104201,5.244035,180.011536,42.182346,2.133260,0.003310,0.000000,7.469223,388.600464,0.705117,12.000000,40.000000,0.000000,0.000000,0.000142,0.000000,146.216003,0.000046,-0.000134,283.232483,117.248848,-0.017933,-2.397069,-1603.427734,0.000000

0.000000,0.000000,0.000000,0.000000,0.000000,0.000000,0.000000,0.000000,0,0,0,0,0,0,63.9918357220,-22.6054262453,146.216003,0.104289,5.244060,180.011536,41.156021,2.135521,0.018820,0.000001,7.497145,385.964111,-1.931224,12.000000,40.000000,0.000000,0.000000,0.000142,0.000000,146.216003,0.000045,-0.000067,283.232483,116.001984,-0.017950,-2.401689,-1613.329590,0.000000

0.000000,0.000000,0.000000,0.000000,0.000000,0.000000,0.000000,0.000000,0,0,0,0,0,0,63.9918357220,-22.6054262453,146.216003,0.104373,5.244083,180.011551,40.132133,2.138466,0.035408,0.000003,7.476495,383.580017,-4.315322,12.000000,40.000000,0.000000,0.000000,0.000142,0.000000,146.216003,0.000044,-0.000000,283.232483,114.905609,-0.017975,-2.406102,-1613.825806,0.000000

0.000000,0.000000,0.000000,0.000000,0.000000,0.000000,0.000000,0.000000,0,0,0,0,0,0,63.9918357220,-22.6054262454,146.216003,0.104469,5.244109,180.011551,38.926151,2.142824,0.054519,0.000004,7.548095,380.644714,-7.250623,12.000000,40.000000,0.000000,0.000000,0.000142,0.000000,146.216003,0.000043,0.000168,283.232483,113.802658,-0.017997,-2.411063,-1619.058594,0.000000

0.000000,0.000000,0.000000,0.000000,0.000000,0.000000,0.000000,0.000000,0,0,0,0,0,0,63.9918357220,-22.6054262454,146.216003,0.104548,5.244128,180.011566,37.909863,2.147250,0.074632,0.000005,7.550965,378.208527,-9.686822,12.000000,40.000000,0.000000,0.000000,-9.999858,-10.000000,146.216003,0.000042,0.000101,283.232483,113.031158,-0.018020,-2.415056,-1621.291138,0.000000

0.000000,0.000000,0.000000,0.000000,0.000000,0.000000,0.000000,0.000000,0,0,0,0,0,0,63.9918357220,-22.6054262454,146.216003,0.104630,5.244148,180.011566,36.806297,2.152847,0.092971,0.000006,7.504838,375.507355,-12.387978,12.000000,40.000000,0.000000,0.000000,-9.999858,-10.000000,146.216003,0.000041,0.000335,283.232483,112.356888,-0.018042,-2.419207,-1625.233887,0.000000

0.000000,0.000000,0.000000,0.000000,0.000000,0.000000,0.000000,0.000000,0,0,0,0,0,0,63.9918357220,-22.6054262455,146.216003,0.104723,5.244169,180.011581,35.526558,2.160379,0.124238,0.000008,7.502998,372.303650,-15.591691,12.000000,40.000000,0.000000,0.000000,-9.999858,-10.000000,146.216003,0.000040,0.000268,283.232483,111.788193,-0.018070,-2.423794,-1631.546509,0.000000

0.000000,0.000000,0.000000,0.000000,0.000000,0.000000,0.000000,0.000000,0,0,0,0,0,0,63.9918357220,-22.6054262455,146.216003,0.104800,5.244184,180.011581,34.437115,2.167688,0.147058,0.000009,7.488922,369.635193,-18.260151,12.000000,40.000000,0.000000,0.000000,-19.999857,-20.000000,146.216003,0.000040,0.000537,283.232483,111.484749,-0.018091,-2.427519,-1633.502563,0.000000

0.000000,0.000000,0.000000,0.000000,0.000000,0.000000,0.000000,0.000000,0,0,0,0,0,0,63.9918357220,-22.6054262456,146.216019,0.104874,5.244198,180.011597,33.355350,2.175776,0.181181,0.000010,7.581970,366.948334,-20.947012,12.000000,40.000000,0.000000,0.000000,-19.999857,-20.000000,146.216019,0.000039,0.000403,283.232483,111.348259,-0.018112,-2.431061,-1636.089355,0.000000

0.000000,0.000000,0.000000,0.000000,0.000000,0.000000,0.000000,0.000000,0,0,0,0,0,0,63.9918357220,-22.6054262456,146.216019,0.104945,5.244210,180.011597,32.281940,2.184633,0.210653,0.000012,7.600248,364.251617,-23.643732,12.000000,40.000000,0.000000,0.000000,-19.999857,-20.000000,146.216019,0.000038,0.000470,283.232483,111.375687,-0.018131,-2.434430,-1638.890625,0.000000

0.000000,0.000000,0.000000,0.000000,0.000000,0.000000,0.000000,0.000000,0,0,0,0,0,0,63.9918357220,-22.6054262456,146.216019,0.105014,5.244220,180.011597,31.217524,2.194252,0.234156,0.000012,7.548505,361.548035,-26.347305,12.000000,40.000000,0.000000,0.000000,-19.999857,-20.000000,146.216019,0.000037,0.000772,283.232483,111.563728,-0.018150,-2.437634,-1641.737549,0.000000

0.000000,0.000000,0.000000,0.000000,0.000000,0.000000,0.000000,0.000000,0,0,0,0,0,0,63.9918357220,-22.6054262457,146.216019,0.105081,5.244229,180.011612,30.162724,2.204622,0.272089,0.000014,7.603497,358.846405,-29.048937,12.000000,40.000000,0.000000,0.000000,-29.999857,-30.000000,146.216019,0.000037,0.000671,283.232483,111.908829,-0.018168,-2.440682,-1644.313232,0.000000

0.000000,0.000000,0.000000,0.000000,0.000000,0.000000,0.000000,0.000000,0,0,0,0,0,0,63.9918357220,-22.6054262457,146.216019,0.105130,5.244234,180.011612,29.378281,2.212885,0.291150,0.000015,7.637727,356.787384,-31.107950,12.000000,40.000000,0.000000,0.000000,-29.999857,-30.000000,146.216019,0.000036,0.000872,283.232483,112.268448,-0.018180,-2.442870,-1647.464478,0.000000

0.000000,0.000000,0.000000,0.000000,0.000000,0.000000,0.000000,0.000000,0,0,0,0,0,0,63.9918357220,-22.6054262460,146.216049,0.105847,5.244209,180.011673,19.559345,2.360410,0.544685,0.000004,2.192275,327.638885,-60.256466,12.000000,40.000000,0.000000,0.000000,-59.999859,-60.000000,146.216049,0.000029,0.000268,283.232483,124.384216,-0.018361,-2.465385,-1532.531860,0.000000

0.000000,0.000000,0.000000,0.000000,0.000000,0.000000,0.000000,0.000000,0,0,0,0,0,0,63.9918357220,-22.6054262460,146.216049,0.105869,5.244211,180.011673,18.500225,2.381816,0.525561,0.000012,6.029112,325.787689,-62.107670,12.000000,40.000000,0.000000,0.000000,-59.999859,-60.000000,146.216049,0.000029,0.000537,283.232483,126.555733,-0.018368,-2.467350,-1488.695557,0.000000

0.000000,0.000000,0.000000,0.000000,0.000000,0.000000,0.000000,0.000000,0,0,0,0,0,0,63.9918357220,-22.6054262460,146.216049,0.105903,5.244216,180.011673,17.607672,2.400802,0.485853,0.000018,7.163515,323.643585,-64.251747,12.000000,40.000000,0.000000,0.000000,-59.999859,-60.000000,146.216049,0.000028,0.000805,283.232483,128.519241,-0.018375,-2.468946,-1477.960449,0.000000

0.000000,0.000000,0.000000,0.000000,0.000000,0.000000,0.000000,0.000000,0,0,0,0,0,0,63.9918357220,-22.6054262461,146.216049,0.105953,5.244223,180.011688,16.729280,2.420362,0.458593,0.000022,7.548492,321.137756,-66.757576,12.000000,40.000000,0.000000,0.000000,-59.999859,-60.000000,146.216049,0.000028,0.001040,283.232483,130.571045,-0.018383,-2.470464,-1483.713379,0.000000

0.000000,0.000000,0.000000,0.000000,0.000000,0.000000,0.000000,0.000000,0,0,0,0,0,0,63.9918357220,-22.6054262461,146.216049,0.106017,5.244232,180.011688,15.865103,2.440483,0.448881,0.000026,7.685388,318.504608,-69.390739,12.000000,40.000000,0.000000,0.000000,-69.999855,-70.000000,146.216049,0.000027,0.001208,283.232483,132.705307,-0.018392,-2.471907,-1494.543701,0.000000

0.000000,0.000000,0.000000,0.000000,0.000000,0.000000,0.000000,0.000000,0,0,0,0,0,0,63.9918357220,-22.6054262461,146.216049,0.106090,5.244241,180.011688,15.015182,2.461151,0.448750,0.000029,7.739145,315.826599,-72.068748,12.000000,40.000000,0.000000,0.000000,-69.999855,-70.000000,146.216049,0.000027,0.001409,283.232483,134.916183,-0.018402,-2.473280,-1506.465332,0.000000

0.000000,0.000000,0.000000,0.000000,0.000000,0.000000,0.000000,0.000000,0,0,0,0,0,0,63.9918357220,-22.6054262462,146.216049,0.106171,5.244248,180.011703,14.179541,2.482353,0.453692,0.000031,7.764195,313.132813,-74.762543,12.000000,40.000000,0.000000,0.000000,-69.999855,-70.000000,146.216049,0.000026,0.001510,283.232483,137.197769,-0.018413,-2.474586,-1518.144287,0.000000

0.000000,0.000000,0.000000,0.000000,0.000000,0.000000,0.000000,0.000000,0,0,0,0,0,0,63.9918357220,-22.6054262462,146.216064,0.106257,5.244254,180.011703,13.358176,2.504074,0.460902,0.000034,7.779259,310.433441,-77.461906,12.000000,40.000000,0.000000,0.000000,-79.999855,-80.000000,146.216064,0.000026,0.001711,283.232483,139.544144,-0.018425,-2.475828,-1529.170654,0.000000

0.000000,0.000000,0.000000,0.000000,0.000000,0.000000,0.000000,0.000000,0,0,0,0,0,0,63.9918357220,-22.6054262463,146.216064,0.106347,5.244257,180.011719,12.551059,2.526302,0.469231,0.000036,7.790870,307.732117,-80.163239,12.000000,40.000000,0.000000,0.000000,-79.999855,-80.000000,146.216064,0.000025,0.001744,283.232483,141.949371,-0.018437,-2.477009,-1539.451172,0.000000

0.000000,0.000000,0.000000,0.000000,0.000000,0.000000,0.000000,0.000000,0,0,0,0,0,0,63.9918357220,-22.6054262463,146.216064,0.106441,5.244258,180.011719,11.758137,2.549024,0.477783,0.000038,7.801317,305.030060,-82.865273,12.000000,40.000000,0.000000,0.000000,-79.999855,-80.000000,146.216064,0.000025,0.001879,283.232483,144.407516,-0.018450,-2.478132,-1548.997437,0.000000

0.000000,0.000000,0.000000,0.000000,0.000000,0.000000,0.000000,0.000000,0,0,0,0,0,0,63.9918357220,-22.6054262464,146.216064,0.106554,5.244255,180.011734,10.850914,2.576139,0.481446,0.000040,7.812682,301.798981,-86.096359,12.000000,40.000000,0.000000,0.000000,-79.999855,-80.000000,146.216064,0.000024,0.002147,283.232483,147.334335,-0.018468,-2.479374,-1562.534546,0.000000

0.000000,0.000000,0.000000,0.000000,0.000000,0.000000,0.000000,0.000000,0,0,0,0,0,0,63.9918357220,-22.6054262464,146.216080,0.106638,5.244250,180.011734,10.214574,2.595896,0.488501,0.000041,7.690982,299.537201,-88.358154,12.000000,40.000000,0.000000,0.000000,-89.999855,-90.000000,146.216080,0.000024,0.002080,283.232483,149.458923,-0.018476,-2.480218,-1569.453735,0.000000

0.000000,0.000000,0.000000,0.000000,0.000000,0.000000,0.000000,0.000000,0,0,0,0,0,0,63.9918357220,-22.6054262464,146.216080,0.106739,5.244241,180.011749,9.463716,2.620020,0.500058,0.000043,7.775911,296.891907,-91.003448,12.000000,40.000000,0.000000,0.000000,-89.999855,-90.000000,146.216080,0.000023,0.002214,283.232483,152.040436,-0.018491,-2.481184,-1574.494751,0.000000

0.000000,0.000000,0.000000,0.000000,0.000000,0.000000,0.000000,0.000000,0,0,0,0,0,0,63.9918357220,-22.6054262465,146.216080,0.106841,5.244228,180.011765,8.771157,2.631282,0.434717,0.000037,7.818202,294.209534,-93.685799,12.000000,40.000000,0.000000,0.000000,-89.999855,-90.000000,146.216080,0.000023,0.002214,283.232483,154.651382,-0.018506,-2.482104,-1580.697388,0.000000

0.000000,0.000000,0.000000,0.000000,0.000000,0.000000,0.000000,0.000000,0,0,0,0,0,0,63.9918357220,-22.6054262465,146.216080,0.106947,5.244215,180.011765,8.133994,2.626986,0.302331,0.000026,7.831311,291.514130,-96.381203,12.000000,40.000000,0.000000,0.000000,-89.999855,-90.000000,146.216080,0.000022,0.001610,283.232483,157.286011,-0.018521,-2.482979,-1586.994629,0.000000

0.000000,0.000000,0.000000,0.000000,0.000000,0.000000,0.000000,0.000000,0,0,0,0,0,0,63.9918357220,-22.6054262466,146.216080,0.107058,5.244203,180.011780,7.494792,2.623016,0.205361,0.000018,7.836077,288.814117,-99.081215,12.000000,40.000000,0.000000,0.000000,-99.999855,-100.000000,146.216080,0.000022,0.001006,283.232483,159.938629,-0.018536,-2.483810,-1593.036133,0.000000

0.000000,0.000000,0.000000,0.000000,0.000000,0.000000,0.000000,0.000000,0,0,0,0,0,0,63.9918357220,-22.6054262467,146.216080,0.107173,5.244193,180.011780,6.853695,2.619372,0.137750,0.000012,7.837930,286.112488,-101.782860,12.000000,40.000000,0.000000,0.000000,-99.999855,-100.000000,146.216080,0.000021,0.000704,283.232483,162.603622,-0.018552,-2.484601,-1598.720825,0.000000

0.000000,0.000000,0.000000,0.000000,0.000000,0.000000,0.000000,0.000000,0,0,0,0,0,0,63.9918357220,-22.6054262467,146.216095,0.107310,5.244182,180.011795,6.103572,2.615538,0.084861,0.000008,7.838188,282.881470,-105.013893,12.000000,40.000000,0.000000,0.000000,-99.999855,-100.000000,146.216095,0.000021,0.000335,283.232483,165.721085,-0.018574,-2.485476,-1608.062744,0.000000

0.000000,0.000000,0.000000,0.000000,0.000000,0.000000,0.000000,0.000000,0,0,0,0,0,0,63.9918357220,-22.6054262468,146.216095,0.107389,5.244176,180.011810,5.673946,2.613548,0.064768,0.000006,7.773970,281.119141,-106.776207,12.000000,40.000000,0.000000,0.000000,-99.999855,-100.000000,146.216095,0.000021,0.000268,283.232483,167.503357,-0.018584,-2.485953,-1609.617065,0.000000

0.000000,0.000000,0.000000,0.000000,0.000000,0.000000,0.000000,0.000000,0,0,0,0,0,0,63.9918357220,-22.6054262468,146.216095,0.107529,5.244166,180.011810,4.920594,2.610421,0.040286,0.000004,7.753479,277.954620,-109.940720,12.000000,40.000000,0.000000,0.000000,-109.999855,-110.000000,146.216095,0.000020,0.000134,283.232483,170.618149,-0.018602,-2.486751,-1615.254517,0.000000

0.000000,0.000000,0.000000,0.000000,0.000000,0.000000,0.000000,0.000000,0,0,0,0,0,0,63.9918357220,-22.6054262469,146.216095,0.107669,5.244154,180.011826,4.165526,2.607747,0.026316,0.000002,7.747553,274.798218,-113.097145,12.000000,40.000000,0.000000,0.000000,-109.999855,-110.000000,146.216095,0.000020,0.000034,283.232483,173.720566,-0.018625,-2.487503,-1620.122681,0.000000

0.000000,0.000000,0.000000,0.000000,0.000000,0.000000,0.000000,0.000000,0,0,0,0,0,0,63.9918357220,-22.6054262469,146.216095,0.107788,5.244142,180.011841,3.517155,2.605816,0.019898,0.000002,7.805845,272.130646,-115.764709,12.000000,40.000000,0.000000,0.000000,-109.999855,-110.000000,146.216095,0.000019,0.000000,283.232483,176.363800,-0.018642,-2.488114,-1622.583374,0.000000

0.000000,0.000000,0.000000,0.000000,0.000000,0.000000,0.200000,0.000000,0,0,0,0,0,0,63.9918357220,-22.6054262470,146.216095,0.107907,5.244128,180.011841,2.867884,2.604219,0.017624,0.000002,7.828063,269.440338,-118.454994,12.000000,40.000000,0.000000,0.000000,-119.999855,-120.000000,146.216095,0.000019,-0.000034,283.232483,178.987045,-0.018660,-2.488694,-1625.780518,0.000000

0.000000,0.000000,0.000000,0.000000,0.000000,0.000000,0.200000,0.000000,0,0,0,0,0,0,63.9918357220,-22.6054262471,146.216095,0.108006,5.244114,180.011856,2.326266,2.603144,0.018077,0.000002,7.834492,142.856232,-120.781700,12.000000,40.000000,0.000000,0.000000,-119.999855,-120.000000,146.216095,0.000019,0.000034,283.232483,181.154373,-0.018671,-2.489157,-1631.668091,0.000000

0.000000,0.000000,0.000000,0.000000,0.000000,0.000000,0.200000,0.000000,0,0,0,0,0,0,63.9918357220,-22.6054262471,146.216095,0.108046,5.244109,180.011856,2.109487,2.602779,0.017138,0.000002,7.763630,141.979218,-121.658714,12.000000,40.000000,0.000000,0.000000,-119.999855,-120.000000,146.216095,0.000018,0.000034,283.232483,182.015869,-0.018678,-2.488029,-1631.745239,12.888187

0.000000,0.000000,0.000000,0.000000,0.000000,0.000000,0.200000,0.000000,0,0,0,0,0,0,63.9918357220,-22.6054262472,146.216095,0.108250,5.244058,180.011871,1.024699,2.601550,0.087538,0.000010,7.315411,137.110260,-126.527672,12.000000,40.000000,0.000000,0.000000,-119.999855,-120.000000,146.216095,0.000018,0.000570,283.232483,186.269714,-0.018713,-2.454180,-1649.738159,71.543541

0.000000,0.000000,0.000000,0.000000,0.000000,0.000000,0.200000,0.000000,0,0,0,0,0,0,63.9918357219,-22.6054262472,146.216095,0.108355,5.243825,180.011887,0.264570,2.601321,0.106694,0.000028,7.547798,134.215134,-129.422806,12.000000,40.000000,0.000000,0.000000,-129.999863,-130.000000,146.216095,0.000017,0.001979,283.232483,189.186508,-0.018750,-2.407028,-1641.737671,110.296143

0.000000,0.000000,0.000000,0.000000,0.000000,0.000000,0.200000,0.000000,0,0,0,0,0,0,63.9918357219,-22.6054262472,146.216095,0.108403,5.243386,180.011887,-0.387099,2.601515,0.104394,0.000046,7.736777,131.618607,-132.019318,12.000000,40.000000,0.000000,0.000000,-129.999863,-130.000000,146.216095,0.000017,0.003422,283.232483,191.640869,-0.018778,-2.354499,-1639.950806,141.843536

0.000000,0.000000,0.000000,0.000000,0.000000,0.000000,0.200000,0.000000,0,0,0,0,0,0,63.9918357217,-22.6054262472,146.216110,0.108406,5.242688,180.011887,-1.038608,2.602051,0.102128,0.000066,7.804202,128.953278,-134.684662,12.000000,40.000000,0.000000,0.000000,-129.999863,-130.000000,146.216110,0.000017,0.004998,283.232483,194.048721,-0.018803,-2.293005,-1640.987061,171.795303

0.000000,0.000000,0.000000,0.000000,0.000000,0.000000,0.200000,0.000000,0,0,0,0,0,0,63.9918357215,-22.6054262472,146.216110,0.108368,5.241727,180.011887,-1.689762,2.602922,0.100622,0.000085,7.858003,126.244186,-137.393738,11.953630,39.845436,0.000000,0.000000,-129.999863,-130.000000,146.216110,0.000016,0.006575,283.232483,196.406235,-0.018825,-2.224434,-1643.703979,200.138062

0.000000,0.000000,0.000000,0.000000,0.000000,0.000000,0.200000,0.000000,0,0,0,0,0,0,63.9918357212,-22.6054262472,146.216125,0.108291,5.240511,180.011871,-2.340398,2.604122,0.099609,0.000103,7.824245,123.558731,-140.079208,11.807724,39.359081,0.000000,0.000000,-139.999863,-140.000000,146.216125,0.000016,0.008017,283.232483,198.709732,-0.018843,-2.150486,-1645.278442,226.868134

0.000000,0.000000,0.000000,0.000000,0.000000,0.000000,0.200000,0.000000,0,0,0,0,0,0,63.9918357209,-22.6054262471,146.216141,0.108179,5.239059,180.011871,-2.990349,2.605647,0.098837,0.000120,7.834670,120.862061,-142.775879,11.617247,38.724155,0.000000,0.000000,-139.999863,-140.000000,146.216141,0.000016,0.009326,283.232483,200.955719,-0.018857,-2.072680,-1647.185669,252.000046

0.000000,0.000000,0.000000,0.000000,0.000000,0.000000,0.200000,0.000000,0,0,0,0,0,0,63.9918357206,-22.6054262471,146.216156,0.108035,5.237400,180.011856,-3.639450,2.607493,0.098346,0.000134,7.838445,118.161430,-145.476501,11.408176,38.027252,0.000000,0.000000,-139.999863,-140.000000,146.216156,0.000015,0.010466,283.232483,203.140900,-0.018866,-1.992362,-1649.118530,275.562958

0.000000,0.000000,0.000000,0.000000,0.000000,0.000000,0.200000,0.000000,0,0,0,0,0,0,63.9918357202,-22.6054262470,146.216171,0.107866,5.235566,180.011841,-4.287548,2.609656,0.097946,0.000145,7.869859,115.439888,-148.198044,11.182606,37.275352,0.000000,0.000000,-149.999863,-150.000000,146.216171,0.000015,0.011405,283.232483,205.262131,-0.018869,-1.910713,-1651.769897,297.597626

0.000000,0.000000,0.000000,0.000000,0.000000,0.000000,0.200000,0.000000,0,0,0,0,0,0,63.9918357198,-22.6054262469,146.216202,0.107677,5.233593,180.011810,-4.934493,2.612137,0.097735,0.000154,7.828240,112.750008,-150.887924,10.942204,36.474014,0.000000,0.000000,-149.999863,-150.000000,146.216202,0.000015,0.012143,283.232483,207.316483,-0.018868,-1.828762,-1652.973633,318.153870

0.000000,0.000000,0.000000,0.000000,0.000000,0.000000,0.200000,0.000000,0,0,0,0,0,0,63.9918357193,-22.6054262468,146.216217,0.107472,5.231518,180.011795,-5.580135,2.614934,0.097595,0.000160,7.835804,110.051743,-153.586182,10.688900,35.629665,0.000000,0.000000,-149.999863,-150.000000,146.216217,0.000015,0.012714,283.232483,209.301224,-0.018862,-1.747388,-1654.421997,337.288300

0.000000,0.000000,0.000000,0.000000,0.000000,0.000000,0.200000,0.000000,0,0,0,0,0,0,63.9918357189,-22.6054262467,146.216232,0.107258,5.229374,180.011780,-6.224327,2.618047,0.097544,0.000163,7.838505,107.350525,-156.287415,10.424414,34.748039,0.000001,0.000000,-149.999863,-150.000000,146.216232,0.000014,0.012948,283.232483,211.213776,-0.018852,-1.667329,-1655.886841,355.062439

0.000000,0.000000,0.000000,0.000000,0.000000,0.000000,0.200000,0.000000,0,0,0,0,0,0,63.9918357184,-22.6054262466,146.216263,0.107038,5.227193,180.011765,-6.866923,2.621477,0.097594,0.000165,7.839328,104.648247,-158.989685,10.150365,33.834534,0.000004,0.000000,-159.999863,-160.000000,146.216263,0.000014,0.013083,283.232422,213.051819,-0.018838,-1.589190,-1657.292480,371.541138

0.000000,0.000000,0.000000,0.000000,0.000000,0.000000,0.200000,0.000000,0,0,0,0,0,0,63.9918357181,-22.6054262465,146.216278,0.106856,5.225368,180.011734,-7.401091,2.624577,0.097709,0.000165,7.766473,102.340683,-161.297241,9.916263,33.054176,0.000010,0.000000,-159.999863,-160.000000,146.216278,0.000014,0.013049,283.232330,214.525009,-0.018827,-1.525890,-1660.493042,384.331970

0.000000,0.000000,0.000000,0.000000,0.000000,0.000000,0.200000,0.000000,0,0,0,0,0,0,63.9918357175,-22.6054262464,146.216309,0.106602,5.222828,180.011719,-8.146739,2.629288,0.097948,0.000163,7.794135,99.136429,-164.501511,9.580522,31.934977,0.000029,0.000001,-159.999863,-160.000000,146.216309,0.000013,0.012982,283.232086,216.495834,-0.018801,-1.440467,-1663.807617,400.880432

0.000000,0.000000,0.000000,0.000000,0.000000,0.000000,0.200000,0.000000,0,0,0,0,0,0,63.9918357173,-22.6054262463,146.216309,0.106497,5.221754,180.011703,-8.465472,2.631439,0.098088,0.000162,7.737278,97.749847,-165.888077,9.434494,31.448168,0.000044,0.000001,-159.999863,-160.000000,146.216309,0.000013,0.012848,283.231873,217.307114,-0.018793,-1.405089,-1665.621582,407.510864

0.000000,0.000000,0.000000,0.000000,0.000000,0.000000,0.200000,0.000000,0,0,0,0,0,0,63.9918357167,-22.6054262462,146.216339,0.106229,5.218950,180.011688,-9.312817,2.637563,0.098504,0.000157,7.457793,93.987595,-169.650345,9.040928,30.136021,0.000123,0.000003,-169.999863,-170.000000,146.216339,0.000013,0.012378,283.230713,219.370682,-0.018763,-1.314555,-1672.205078,423.919830

0.000000,0.000000,0.000000,0.000000,0.000000,0.000000,0.200000,0.000000,0,0,0,0,0,0,63.9918357163,-22.6054262461,146.216354,0.106036,5.216920,180.011658,-9.945692,2.642527,0.098968,0.000152,7.648665,91.479034,-172.158890,8.740376,29.133768,0.000247,0.000005,-169.999863,-170.000000,146.216354,0.000013,0.012009,283.228943,220.821487,-0.018739,-1.250344,-1665.024414,435.096619

0.000000,0.000000,0.000000,0.000000,0.000000,0.000000,0.200000,0.000000,0,0,0,0,0,0,63.9918357159,-22.6054262460,146.216385,0.105856,5.214969,180.011642,-10.576113,2.647806,0.099650,0.000147,7.771597,88.844521,-174.793411,8.437853,28.124605,0.000474,0.000010,-169.999863,-170.000000,146.216385,0.000012,0.011540,283.225677,222.187897,-0.018713,-1.189247,-1663.173096,445.380890

0.000000,0.000000,0.000000,0.000000,0.000000,0.000000,0.200000,0.000000,0,0,0,0,0,0,63.9918357154,-22.6054262459,146.216400,0.105667,5.212802,180.011627,-11.308354,2.654366,0.100595,0.000140,7.745043,85.661888,-177.976044,8.084043,26.943634,0.000959,0.000019,-179.999863,-180.000000,146.216400,0.000012,0.010936,283.218689,223.673981,-0.018677,-1.121729,-1665.317017,456.331146

0.000000,0.000000,0.000000,0.000000,0.000000,0.000000,0.200000,0.000000,0,0,0,0,0,0,63.9918357150,-22.6054262459,146.216415,0.105523,5.211045,180.011612,-11.933076,2.660330,0.101518,0.000134,7.795828,83.001915,-180.636017,7.780729,25.930193,0.001681,0.000034,-179.999863,-180.000000,146.216415,0.000012,0.010399,283.208313,224.854202,-0.018649,-1.066916,-1664.423950,464.884491

0.000000,0.000000,0.000000,0.000000,0.000000,0.000000,0.200000,0.000000,0,0,0,0,0,0,63.9918357147,-22.6054262458,146.216431,0.105405,5.209517,180.011597,-12.503249,2.666074,0.102153,0.000128,7.786048,80.561829,-183.076096,7.503649,25.003113,0.002732,0.000055,-179.999863,-180.000000,146.216431,0.000012,0.010198,283.193176,225.859634,-0.018621,-1.019027,-1663.700562,472.099243

0.000000,0.000000,0.000000,0.000000,0.000000,0.000000,0.200000,0.000000,0,0,0,0,0,0,63.9918357144,-22.6054262458,146.216461,0.105284,5.207816,180.011597,-13.173855,2.673204,0.103600,0.000121,7.846653,77.587143,-186.050781,7.178632,23.913233,0.004690,0.000095,-179.999863,-180.000000,146.216461,0.000011,0.009527,283.164978,226.953110,-0.018593,-0.965193,-1666.422974,479.909973

0.000000,0.000000,0.000000,0.000000,0.000000,0.000000,0.200000,0.000000,0,0,0,0,0,0,63.9918357141,-22.6054262457,146.216461,0.105203,5.206757,180.011581,-13.584658,2.677990,0.113400,0.000168,7.810149,75.801254,-187.836670,6.977062,23.235540,0.006439,0.000130,-189.999863,-190.000000,146.216461,0.000011,0.012378,283.139771,227.574860,-0.018606,-0.933489,-1666.254395,522.635864

0.000000,0.000000,0.000000,0.000000,0.000000,0.000000,0.200000,0.000000,0,0,0,0,0,0,63.9918357134,-22.6054262455,146.216507,0.104747,5.203321,180.011536,-14.298468,2.687495,0.105877,0.000359,7.762513,72.619919,-191.018005,6.593945,21.943239,0.011040,0.000223,-189.999863,-190.000000,146.216507,0.000011,0.027306,283.073456,228.569016,-0.018685,-0.880506,-1668.016968,601.124817

0.000000,0.000000,0.000000,0.000000,0.000000,0.000000,0.200000,0.000000,0,0,0,0,0,0,63.9918357122,-22.6054262451,146.216568,0.103935,5.197834,180.011475,-14.905274,2.696114,0.100392,0.000530,7.808518,69.945297,-193.692642,6.237915,20.735186,0.017465,0.000352,-189.999863,-190.000000,146.216568,0.000035,0.041328,282.980743,229.326111,-0.018746,-0.837508,-1667.493042,661.542358

0.000000,0.000000,0.000000,0.000000,0.000000,0.000000,0.200000,0.000000,0,0,0,0,0,0,63.9918357106,-22.6054262446,146.216644,0.102801,5.190066,180.011368,-15.508283,2.704855,0.097271,0.000667,7.826205,67.252266,-196.385666,5.866507,19.463465,0.027633,0.000554,-189.999863,-190.000000,146.216644,0.000106,0.052733,282.833771,229.995697,-0.018761,-0.796625,-1667.710083,715.294495

0.000000,0.000000,0.000000,0.000000,0.000000,0.000000,0.200000,0.000000,0,0,0,0,0,0,63.9918357086,-22.6054262439,146.216736,0.101446,5.180526,180.011246,-16.108057,2.713617,0.095281,0.000759,7.832200,64.552765,-199.085159,5.488414,18.150013,0.043671,0.000870,-199.999863,-200.000000,146.216736,0.000191,0.060650,282.601471,230.578186,-0.018726,-0.757747,-1668.158325,762.364990

0.000000,0.000000,0.000000,0.000000,0.000000,0.000000,0.200000,0.000000,0,0,0,0,0,0,63.9918357063,-22.6054262432,146.216843,0.099966,5.169843,180.011108,-16.704847,2.722389,0.093880,0.000806,7.834004,61.850986,-201.786942,5.112793,16.814938,0.068719,0.001357,-199.999863,-200.000000,146.216843,0.000285,0.064776,282.237732,231.074173,-0.018646,-0.720775,-1668.660156,802.938354

0.000000,0.000000,0.000000,0.000000,0.000000,0.000000,0.200000,0.000000,0,0,0,0,0,0,63.9918357039,-22.6054262425,146.216949,0.098445,5.158710,180.010971,-17.295486,2.731690,0.082978,0.000799,7.834373,59.148396,-204.489532,4.752732,15.487117,0.107226,0.002095,-199.999863,-200.000000,146.216949,0.000383,0.064272,281.676727,231.484375,-0.018527,-0.685610,-1669.155029,837.337280

0.000000,0.000000,0.000000,0.000000,0.000000,0.000000,0.200000,0.000000,0,0,0,0,0,0,63.9918357006,-22.6054262418,146.217056,0.096934,5.149384,180.010757,-17.863234,2.744287,0.042835,0.000683,7.835140,56.445507,-207.192429,4.424339,14.201229,0.164926,0.003187,-199.999863,-200.000000,146.217056,0.000520,0.052397,280.833069,231.809692,-0.018286,-0.652176,-1669.623535,865.973694

0.000000,0.000000,0.000000,0.000000,0.000000,0.000000,0.200000,0.000000,0,0,0,0,0,0,63.9918356947,-22.6054262411,146.217133,0.095538,5.143006,180.010605,-18.401709,2.760025,0.022241,0.000611,7.824395,53.728714,-209.909210,4.136312,12.962392,0.249022,0.004756,-209.999863,-210.000000,146.217133,0.000760,0.044045,279.598755,232.051163,-0.017920,-0.620366,-1670.601074,889.312317

0.000000,0.000000,0.000000,0.000000,0.000000,0.000000,0.200000,0.000000,0,0,0,0,0,0,63.9918356851,-22.6054262405,146.217194,0.094266,5.138975,180.010391,-18.918383,2.778450,0.014176,0.000615,7.830610,51.034569,-212.603363,3.898368,11.774044,0.368240,0.006951,-209.999863,-210.000000,146.217194,0.001158,0.037470,277.841095,232.209991,-0.017615,-0.590115,-1670.626221,907.843872

0.000000,0.000000,0.000000,0.000000,0.000000,0.000000,0.200000,0.000000,0,0,0,0,0,0,63.9918356707,-22.6054262400,146.217255,0.093129,5.136586,180.010162,-19.414064,2.799023,0.010636,0.000667,7.826882,48.320816,-215.317108,3.721256,10.639024,0.532530,0.009936,-209.999863,-210.000000,146.217255,0.001756,0.034719,275.405487,232.287506,-0.017254,-0.561342,-1671.409180,922.063782

0.000000,0.000000,0.000000,0.000000,0.000000,0.000000,0.200000,0.000000,0,0,0,0,0,0,63.9918356506,-22.6054262395,146.217300,0.092148,5.135286,180.009918,-19.891403,2.821265,0.009063,0.000768,7.823901,45.613930,-218.024002,3.615943,9.559453,0.752271,0.013880,-219.999863,-220.000000,146.217300,0.002585,0.033478,272.124023,232.285141,-0.016821,-0.533973,-1671.869995,932.458130

0.000000,0.000000,0.000000,0.000000,0.000000,0.000000,0.200000,0.000000,0,0,0,0,0,0,63.9918356242,-22.6054262391,146.217361,0.091332,5.134675,180.009613,-20.353783,2.844755,0.008207,0.000891,7.825570,42.909451,-220.728485,3.592265,8.536999,1.036845,0.018931,-219.999863,-220.000000,146.217361,0.003668,0.039382,267.832825,232.204498,-0.016236,-0.507949,-1672.201782,939.492859

0.000000,0.000000,0.000000,0.000000,0.000000,0.000000,0.200000,0.000000,0,0,0,0,0,0,63.9918355911,-22.6054262388,146.217438,0.090686,5.134459,180.009277,-20.803167,2.869094,0.007797,0.001042,7.829028,40.205811,-223.432114,3.656731,7.572890,1.392418,0.025180,-219.999863,-220.000000,146.217438,0.005017,0.041227,262.400391,232.047287,-0.015508,-0.483198,-1672.473511,943.607361

0.000000,0.000000,0.000000,0.000000,0.000000,0.000000,0.200000,0.000000,0,0,0,0,0,0,63.9918355510,-22.6054262386,146.217499,0.090207,5.134452,180.008896,-21.242247,2.893949,0.007378,0.001176,7.833168,37.502460,-226.135468,3.809656,6.667956,1.819053,0.032616,-219.999863,-220.000000,146.217499,0.006639,0.049445,255.767532,231.815338,-0.014728,-0.459657,-1672.710327,945.209839

0.000000,0.000000,0.000000,0.000000,0.000000,0.000000,0.200000,0.000000,0,0,0,0,0,0,63.9918355039,-22.6054262385,146.217590,0.089876,5.134535,180.008499,-21.673487,2.919038,0.007234,0.001340,7.849883,34.812992,-228.824936,4.042062,5.822628,2.307595,0.041072,-229.999863,-230.000000,146.217590,0.008531,0.051592,247.994949,231.510574,-0.013930,-0.437267,-1672.382080,944.675903

0.000000,0.000000,0.000000,0.000000,0.000000,0.000000,0.200000,0.000000,0,0,0,0,0,0,63.9918354498,-22.6054262385,146.217682,0.089680,5.134602,180.008072,-22.098680,2.944115,0.007182,0.001513,7.892910,32.095097,-231.542831,4.333393,5.036944,2.837368,0.050194,-229.999863,-230.000000,146.217682,0.010688,0.055349,239.308044,231.135040,-0.013129,-0.415971,-1673.197144,942.346985

0.000000,0.000000,0.000000,0.000000,0.000000,0.000000,0.200000,0.000000,0,0,0,0,0,0,63.9918353887,-22.6054262385,146.217773,0.089621,5.134624,180.007645,-22.519852,2.968988,0.007070,0.001666,7.888309,29.382288,-234.255646,4.651541,4.310601,3.376195,0.059445,-229.999863,-230.000000,146.217773,0.013098,0.061521,230.120285,230.690903,-0.012336,-0.395714,-1673.773926,938.531982

0.000000,0.000000,0.000000,0.000000,0.000000,0.000000,0.200000,0.000000,0,0,0,0,0,0,63.9918353210,-22.6054262385,146.217880,0.089679,5.134563,180.007187,-22.938189,2.993492,0.007033,0.001825,7.856484,26.699640,-236.938293,4.956713,3.643052,3.884249,0.068171,-229.999863,-230.000000,146.217880,0.015746,0.068901,221.011581,230.180374,-0.011569,-0.376447,-1673.095093,933.507690

0.000000,0.000000,0.000000,0.000000,0.000000,0.000000,0.200000,0.000000,0,0,0,0,0,0,63.9918352470,-22.6054262386,146.218002,0.089833,5.134408,180.006729,-23.355310,3.017510,0.006991,0.001972,7.872760,24.003656,-239.634277,5.209507,3.033642,4.322135,0.075734,-239.999863,-240.000000,146.218002,0.018616,0.072055,212.643677,229.605774,-0.010841,-0.358122,-1672.968384,927.520447

0.000000,0.000000,0.000000,0.000000,0.000000,0.000000,0.200000,0.000000,0,0,0,0,0,0,63.9918351669,-22.6054262388,146.218124,0.090077,5.134152,180.006210,-23.772058,3.040945,0.006974,0.002116,7.868574,21.289188,-242.348740,5.381415,2.481810,4.661376,0.081682,-239.999863,-240.000000,146.218124,0.021686,0.077757,205.617142,228.969528,-0.010160,-0.340698,-1673.564331,920.788330

0.000000,0.000000,0.000000,0.000000,0.000000,0.000000,0.200000,0.000000,0,0,0,0,0,0,63.9918350812,-22.6054262389,146.218262,0.090392,5.133806,180.005661,-24.189390,3.063586,0.006948,0.002246,5.437839,19.822098,-243.815826,5.463358,1.987260,4.892946,0.085888,-239.999863,-240.000000,146.218262,0.024937,0.085036,200.310760,228.274124,-0.009529,-0.324131,-1624.604126,913.509766

0.000000,0.000000,0.000000,0.000000,0.000000,0.000000,0.200000,0.000000,0,0,0,0,0,0,63.9918349980,-22.6054262391,146.218399,0.090734,5.133414,180.005081,-24.568951,3.083624,0.006925,0.002354,4.013977,19.326275,-244.311661,5.469419,1.584231,5.020666,0.088387,-239.999863,-240.000000,146.218399,0.028057,0.085473,197.006500,227.586853,-0.008943,-0.309659,-1546.080200,906.504883

0.000000,0.000000,0.000000,0.000000,0.000000,0.000000,0.200000,0.000000,0,0,0,0,0,0,63.9918348946,-22.6054262393,146.218552,0.091174,5.132874,180.004425,-25.027893,3.106738,0.006865,0.002457,3.229320,19.110708,-244.527222,5.419658,1.170088,5.095674,0.090138,-239.999863,-240.000000,146.218552,0.031892,0.095368,194.740936,226.716034,-0.008403,-0.293402,-1438.145386,897.972412

0.000000,0.000000,0.000000,0.000000,0.000000,0.000000,0.200000,0.000000,0,0,0,0,0,0,63.9918348032,-22.6054262395,146.218704,0.091589,5.132364,180.003799,-25.410789,3.125447,0.006915,0.002570,2.961627,19.042358,-244.595566,5.355162,0.872436,5.120737,0.091021,-239.999863,-240.000000,146.218704,0.035243,0.091142,193.810852,225.931992,-0.007910,-0.280317,-1341.901245,890.649231

